{"branches":[{"name":"安定门支行","address":"东城区安定门外大街，北二环安定门桥向北200米路东，三利大厦一层","tel":"51236737/64217769","opentime":"9:00-18:00","lat":"39.95157929","lng":"116.40877783","msg":"","branchno":"110569","type":"B"},{"name":"北三环支行","address":"东城区北三环东路36号环球贸易中心D座一层","tel":"59575059/59575123","opentime":"9:00-18:00","lat":"39.96816474","lng":"116.41070500","msg":"","branchno":"110522","type":"B"},{"name":"北苑路支行","address":"朝阳区北苑路168号，中安盛业大厦一层，欧陆经典大厦北侧","tel":"58247395/58246878","opentime":"9:00-18:00","lat":"39.99606704","lng":"116.41766667","msg":"","branchno":"110532","type":"B"},{"name":"长安街支行","address":"东城区建国门内大街11号，交通部大楼附楼一层","tel":"65292020/65292021","opentime":"9:00-18:00","lat":"39.90961330","lng":"116.42662592","msg":"","branchno":"110505","type":"B"},{"name":"朝外大街支行","address":"朝阳区朝外大街26号，朝外们写字中心B座一层，昆泰大厦南侧","tel":"85653252/85656433","opentime":"9:00-18:00","lat":"39.92191087","lng":"116.44131035","msg":"","branchno":"110573","type":"B"},{"name":"朝阳公园支行","address":"朝阳区朝阳公园路19号佳隆国际大厦首层","tel":"65397739/65398883","opentime":"9:00-18:00","lat":"39.93401959","lng":"116.47229791","msg":"","branchno":"110539","type":"B"},{"name":"朝阳门支行","address":"东城区朝阳门北大街6号，港澳中心南侧首创大厦一层","tel":"85282352/85282348","opentime":"9:00-18:00","lat":"39.93187856","lng":"116.43524453","msg":"","branchno":"110521","type":"B"},{"name":"崇文门支行","address":"崇文区东兴隆街58号北京商界二期一层","tel":"67089485/67089468","opentime":"9:00-18:00","lat":"39.89717823","lng":"116.41391158","msg":"","branchno":"110527","type":"B"},{"name":"大屯路支行","address":"朝阳区大屯路南沙滩66号华源冠军城1-4-1","tel":"82884287/82884290","opentime":"9:00-18:00","lat":"40.00137749","lng":"116.37343436","msg":"","branchno":"110","type":"B"},{"name":"大望路支行","address":"朝阳区西大望路15号3号楼外企大厦一层，家乐福超市向东100米","tel":"87723583/87723210","opentime":"9:00-18:00","lat":"39.89355335","lng":"116.47605568","msg":"","branchno":"110528","type":"B"},{"name":"大运村支行","address":"海淀区知春路城铁站向东300米路北，量子芯座大厦一层","tel":"82357645/82357508","opentime":"9:00-18:00","lat":"39.97676246","lng":"116.34438537","msg":"","branchno":"110563","type":"B"},{"name":"东方广场支行","address":"东城区东长安街1号东方广场E3座，安永大楼二层平台","tel":"85150201/85186723-8008","opentime":"9:00-18:00","lat":"39.90999907","lng":"116.41701490","msg":"","branchno":"110525","type":"B"},{"name":"东三环支行","address":"朝阳区东三环北路1号，三元东桥西南角","tel":"64620963/64613054","opentime":"9:00-18:00","lat":"39.95405793","lng":"116.45945214","msg":"","branchno":"110511","type":"B"},{"name":"东四环支行","address":"朝阳区东四环中路56号,远洋国际中心A座一层","tel":"59080172/59080177","opentime":"9:00-18:00","lat":"39.91517683","lng":"116.49144888","msg":"","branchno":"110536","type":"B"},{"name":"东直门支行","address":"东城区东直门外大街46号，东方银座东侧，天恒大厦一层","tel":"84608015/84608093","opentime":"9:00-18:00","lat":"39.94043098","lng":"116.43669829","msg":"","branchno":"110529","type":"B"},{"name":"方庄支行","address":"丰台区方庄通润商务会馆B区一层，方庄环岛向西200米路北","tel":"67611702/87677312-8041","opentime":"9:00-18:00","lat":"39.86590876","lng":"116.42522112","msg":"","branchno":"110566","type":"B"},{"name":"分行营业部","address":"西城区复兴门内大街156号，招商国际金融大厦一层东北角","tel":"66427121/66426622","opentime":"9:00-18:00","lat":"39.90671127","lng":"116.36274375","msg":"","branchno":"110501","type":"B"},{"name":"阜外大街支行","address":"西城区阜外大街22号外经贸大厦","tel":"68784023/68784030","opentime":"9:00-18:00","lat":"39.92309829","lng":"116.34662703","msg":"","branchno":"110551","type":"B"},{"name":"富力城支行","address":"朝阳区东三环中路55号，富力广场北侧","tel":"58767070","opentime":"9:00-18:00","lat":"39.89752239","lng":"116.45980552","msg":"","branchno":"110552","type":"B"},{"name":"光华路支行","address":"朝阳区光华路1号，嘉里中心地下一层","tel":"85296380/85296379","opentime":"9:00-18:00","lat":"39.91406179","lng":"116.45972438","msg":"","branchno":"110523","type":"B"},{"name":"海淀支行","address":"海淀区北四环西路56号，辉煌时代大厦一层，鼎好电子商城向西50米","tel":"62695363/62695365","opentime":"9:00-18:00","lat":"39.98431971","lng":"116.31172277","msg":"","branchno":"110570","type":"B"},{"name":"华贸中心支行","address":"朝阳区建国路79、81号","tel":"65981758","opentime":"9：00-18：00","lat":"39.90882686","lng":"116.48153543","msg":"","branchno":"110999","type":"B"},{"name":"慧忠北里支行","address":"朝阳区慧忠北里305号楼一层，全聚德北侧路口向西30米","tel":"64880995/64887800","opentime":"9:00-18:00","lat":"40.00437927","lng":"116.40633367","msg":"","branchno":"110531","type":"B"},{"name":"建国路支行","address":"朝阳区建国路116号，国贸桥东南角，招商局大厦一层","tel":"65660150-8065/65660150-8038","opentime":"9:00-18:00","lat":"39.90772561","lng":"116.46369204","msg":"","branchno":"110526","type":"B"},{"name":"建国门支行","address":"朝阳区建外大街24号京华公寓","tel":"65159582/65150612","opentime":"9:00-18:00","lat":"39.90803937","lng":"116.44031659","msg":"","branchno":"110550","type":"B"},{"name":"建外大街支行","address":"朝阳区东三环中路39号，建外SOHO小区6号楼0668号","tel":"59000510/59000518","opentime":"9:00-18:00","lat":"39.90633320","lng":"116.45907596","msg":"","branchno":"110506","type":"B"},{"name":"金融街支行","address":"西城区金融街35号，国际企业大厦C座一层","tel":"88091265/88091255","opentime":"9:00-18:00","lat":"39.90999958","lng":"116.35917976","msg":"","branchno":"110565","type":"B"},{"name":"金融街中心支行","address":"西城区金融大街16号中国人寿大厦一层","tel":"66290749","opentime":"9:00-18:00","lat":"39.91780799","lng":"116.36057049","msg":"","branchno":"110565","type":"B"},{"name":"京广桥支行","address":"朝阳区东三环北路38号院1号楼泰康金融大厦","tel":"85879761/85879737","opentime":"9:00-18:00 (周一至周五)","lat":"39.92063756","lng":"116.46308720","msg":"","branchno":"110558","type":"B"},{"name":"静安里支行","address":"朝阳区北三环东路8号，静安中心一层，皇家大酒店西侧","tel":"64689219/64666006","opentime":"9:00-18:00","lat":"39.95999150","lng":"116.44003227","msg":"","branchno":"110568","type":"B"},{"name":"立水桥支行","address":"朝阳区北苑路13号院1号楼1-9号","tel":"52086681","opentime":"9：00-18：00","lat":"40.04001144","lng":"116.41470015","msg":"","branchno":"110553","type":"B"},{"name":"青年路支行","address":"朝阳区青年路西里5号院15号楼二层，朝阳大悦城西北侧","tel":"85563091、85563076","opentime":"9：00-18：00","lat":"39.92817427","lng":"116.51708946","msg":"","branchno":"110556","type":"B"},{"name":"清华科技园支行","address":"海淀区清华科技园，科技大厦B座G层，清华大学东门向南200米","tel":"62602911/62602929","opentime":"9:00-18:00 (周一至周五)","lat":"39.99406563","lng":"116.33123517","msg":"","branchno":"110535","type":"B"},{"name":"清华园支行","address":"海淀区清华大学东门，清华紫光大厦一层","tel":"62793655/62790073","opentime":"9:00-18:00","lat":"39.99506018","lng":"116.33200362","msg":"","branchno":"110567","type":"B"},{"name":"上地支行","address":"海淀区农大南路1号硅谷亮城2号楼B座一层，上地信息路南口","tel":"62667340/62667353","opentime":"9:00-17:00","lat":"40.02665219","lng":"116.31297603","msg":"","branchno":"110533","type":"B"},{"name":"十里河支行","address":"朝阳区东三环南路19号，联合国际大厦","tel":"87667468","opentime":"9：00－18：00","lat":"39.86882384","lng":"116.46045059","msg":"","branchno":"110888","type":"B"},{"name":"世纪城支行","address":"海淀区世纪金源时代购物中心北门对面","tel":"88876703/88876711","opentime":"9:00-18:00","lat":"39.95982292","lng":"116.28652811","msg":"","branchno":"110571","type":"B"},{"name":"首体支行","address":"西城区西直门外大街甲143号，凯旋大厦A座一层，家乐福首体店东侧","tel":"88016697/88016694","opentime":"9:00-18:00","lat":"39.93892253","lng":"116.33230805","msg":"","branchno":"110562","type":"B"},{"name":"双榆树支行","address":"海淀区中关村南大街9号，理工科技大厦一层","tel":"68416863/68467183","opentime":"9:00-18:00","lat":"39.95785437","lng":"116.32231079","msg":"","branchno":"110515","type":"B"},{"name":"万达广场支行","address":"朝阳区建国路93号万达广场7号楼一层，万达沃尔玛北侧","tel":"58206783","opentime":"9:00-18:00","lat":"39.91044449","lng":"116.47162467","msg":"","branchno":"110530","type":"B"},{"name":"万泉河支行","address":"海淀区万柳东路阳春光华家园甲5号","tel":"82573006/82571483","opentime":"9:00-18:00","lat":"39.96486842","lng":"116.30213991","msg":"","branchno":"110564","type":"B"},{"name":"万寿路支行","address":"海淀区复兴路乙20号，公主坟翠微大厦向西100米，长安街路南","tel":"68286564/68286557","opentime":"9:00-18:00","lat":"39.90688050","lng":"116.29993916","msg":"","branchno":"110513","type":"B"},{"name":"万通中心支行","address":"朝阳区朝外大街甲6号，万通中心一层，京广桥向西200米路南","tel":"59070211/59070215","opentime":"9:00-18:00","lat":"39.91990935","lng":"116.45703881","msg":"","branchno":"110508","type":"B"},{"name":"王府井支行","address":"东城区灯市口大街75号，王府井天伦王朝饭店对面","tel":"65272067/65272073","opentime":"9:00-18:00","lat":"39.91869410","lng":"116.41243100","msg":"","branchno":"110516","type":"B"},{"name":"望京西园支行","address":"朝阳区东湖南里，嘉利花园（炫彩嘉轩）一层","tel":"64789785/64789637","opentime":"9:00-18:00","lat":"40.00213103","lng":"116.47847905","msg":"","branchno":"110510","type":"B"},{"name":"望京支行","address":"朝阳区南湖南路15号院甲1号一层，大西洋新城西侧","tel":"64799870/64799886","opentime":"9:00-18:00","lat":"39.99003077","lng":"116.46293967","msg":"","branchno":"110572","type":"B"},{"name":"西二旗支行","address":"海淀区上地十街1号院6号楼1层","tel":"62410119、62410167","opentime":"9：00－17：00（周一至周五）","lat":"40.05230558","lng":"116.30016178","msg":"","branchno":"110560","type":"B"},{"name":"西三环支行","address":"海淀区阜成路67号，银都大厦一层，航天桥向西200米路北","tel":"68718147/68718141","opentime":"9:00-18:00","lat":"39.92463331","lng":"116.29992642","msg":"","branchno":"110520","type":"B"},{"name":"小关支行","address":"朝阳区芍药居北里101号1幢1层103室，世奥国际中心","tel":"64822467/64822450","opentime":"9:00-18:00","lat":"39.98843711","lng":"116.43247917","msg":"","branchno":"110517","type":"B"},{"name":"宣武门支行","address":"宣武区宣武门外大街30号，富卓大厦一层，沃尔玛超市北侧","tel":"63164385/63164377","opentime":"9:00-18:00","lat":"39.89364132","lng":"116.37565657","msg":"","branchno":"110519","type":"B"},{"name":"亚运村支行","address":"朝阳区北辰东路8号，北京国际会议中心地下一层","tel":"84987347/84987476","opentime":"9:00-18:00","lat":"39.98921442","lng":"116.40210852","msg":"","branchno":"110507","type":"B"},{"name":"玉泉路支行","address":"海淀区复兴路83号景藏健康大厦首层","tel":"68170051/68171838","opentime":"9:00-18:00","lat":"39.90752552","lng":"116.25910789","msg":"","branchno":"110512","type":"B"},{"name":"展览路支行","address":"西城区百万庄大街甲39号，甘家口大厦东北角","tel":"68365421/68365433","opentime":"9:00-18:00","lat":"39.92817427","lng":"116.33421510","msg":"","branchno":"110509","type":"B"},{"name":"中关村西区支行","address":"海淀区海淀北二街6号普天大厦一层","tel":"82488293/82488276","opentime":"9:00-18:00 (周一至周五)","lat":"39.98396623","lng":"116.31118700","msg":"","branchno":"110537","type":"B"},{"name":"中关村支行","address":"海淀区中关村南大街2号，数码大厦A座，双安商场西侧","tel":"52786217/52786214","opentime":"9:00-18:00","lat":"39.96647035","lng":"116.32348225","msg":"","branchno":"110503","type":"B"}]}