{"branches":[{"name":"宝山支行","address":"上海市牡丹江路1577号","tel":"56122663、56128533－223","opentime":"9：00--18：00（1－7）","lat":"31.40077100","lng":"121.48430800","msg":"","branchno":"121542","type":"B"},{"name":"曹家渡支行","address":"上海市长寿路1148号","tel":"62113689、62527666-37","opentime":"9：00--18：00（1－7）","lat":"31.23024180","lng":"121.42758400","msg":"","branchno":"121550","type":"B"},{"name":"曹杨支行","address":"上海市曹杨路188号","tel":"52352207","opentime":"9：00--18：00（1－7）","lat":"31.23272060","lng":"121.42236280","msg":"","branchno":"121546","type":"B"},{"name":"长乐支行","address":"上海市长乐路801号","tel":"54051060","opentime":"9：00--18：00（1－7）","lat":"31.21577250","lng":"121.44754470","msg":"","branchno":"121524","type":"B"},{"name":"长宁支行","address":"上海市长宁路1302号","tel":"52729951","opentime":"9：00--18：00（1－7）","lat":"31.21734840","lng":"121.41168190","msg":"","branchno":"121523","type":"B"},{"name":"长阳支行","address":"上海市长阳路1441号","tel":"65437199－30，55803066","opentime":"9：00－18：00（1－7）","lat":"31.26785400","lng":"121.53015100","msg":"","branchno":"121540","type":"B"},{"name":"川北支行","address":"上海市四川北路1689号","tel":"63936530","opentime":"9：00--18：00（1－7）","lat":"31.26155000","lng":"121.48378300","msg":"","branchno":"121555","type":"B"},{"name":"大木桥支行","address":"上海市肇嘉浜路333号","tel":"64226807","opentime":"9：00－18：00（1－7）","lat":"31.20220670","lng":"121.46015820","msg":"","branchno":"121595","type":"B"},{"name":"东大名支行","address":"上海市东大名路700号","tel":"65966100","opentime":"9：00--18：00（1－7）","lat":"31.24978820","lng":"121.50228400","msg":"","branchno":"121525","type":"B"},{"name":"东方支行","address":"上海市东方路902-904号","tel":"58309505、68768700－115","opentime":"9：00--18：00（1－7）","lat":"31.22398230","lng":"121.52717400","msg":"","branchno":"121530","type":"B"},{"name":"分行营业部","address":"上海市陆家嘴东路161号","tel":"58790443","opentime":"9：00--18：00（1－7）","lat":"31.23674220","lng":"121.50822680","msg":"","branchno":"121560","type":"B"},{"name":"福州路支行（装修停业）","address":"上海市福州路646号","tel":"63617886","opentime":"9：00--18：00（1－7）","lat":"31.23259120","lng":"121.47844900","msg":"","branchno":"121529","type":"B"},{"name":"高安支行","address":"上海市肇嘉浜路680号","tel":"64312335","opentime":"9：00－18：00（1－7）","lat":"31.19959200","lng":"121.44917100","msg":"","branchno":"121527","type":"B"},{"name":"古北支行","address":"上海市水城南路75号","tel":"62700588-626、646","opentime":"9：00－18：00（1-7）","lat":"31.19789500","lng":"121.39273700","msg":"","branchno":"121551","type":"B"},{"name":"虹口体育场支行","address":"上海市花园路32-40号","tel":"56968822","opentime":"9：00--18：00（1－7）","lat":"31.26990760","lng":"121.47834650","msg":"","branchno":"121554","type":"B"},{"name":"虹桥支行","address":"上海市遵义南路88号","tel":"62708727","opentime":"9：00--18：00（1－7）","lat":"31.20382810","lng":"121.40612520","msg":"","branchno":"121539","type":"B"},{"name":"华灵支行","address":"上海市华灵路1号","tel":"66366110","opentime":"9：00－18：00（1－7）","lat":"31.27064670","lng":"121.42459510","msg":"","branchno":"121561","type":"B"},{"name":"淮海支行","address":"上海市淮海中路1155号","tel":"64741583、64338511－101","opentime":"9：00--18：00（1－7）","lat":"31.21449680","lng":"121.45393410","msg":"","branchno":"121520","type":"B"},{"name":"淮中支行","address":"上海市淮海中路398号","tel":"53821866","opentime":"9：00--18：00（1－7）","lat":"31.22257170","lng":"121.47208140","msg":"","branchno":"121522","type":"B"},{"name":"嘉定支行","address":"上海市嘉定区塔城路399号","tel":"59537107","opentime":"8：30－16：30（1-7）","lat":"31.37936520","lng":"121.24787190","msg":"","branchno":"121571","type":"B"},{"name":"江宁支行","address":"上海市江宁路1286号","tel":"62991872、62991900－0","opentime":"9：00－18：00（1－7）","lat":"31.24597900","lng":"121.44312000","msg":"","branchno":"121521","type":"B"},{"name":"江湾支行","address":"上海市丰镇路1号","tel":"55388543","opentime":"9：00--18：00（1－7）","lat":"31.30463700","lng":"121.48094180","msg":"","branchno":"121548","type":"B"},{"name":"金陵支行","address":"上海市黄浦区金陵东路569号","tel":"53821222*820   53828981","opentime":"9：00—18：00（1-7）","lat":"31.22658254","lng":"121.48003578","msg":"","branchno":"121558","type":"B"},{"name":"金桥支行","address":"上海市金桥路1398号","tel":"50753878-104","opentime":"9：00--18：00（1－7）","lat":"31.25244350","lng":"121.58794770","msg":"","branchno":"121565","type":"B"},{"name":"静安寺支行","address":"上海市北京西路1700号","tel":"62550985","opentime":"9：00--18：00（1－7）","lat":"31.22550870","lng":"121.44359400","msg":"","branchno":"121545","type":"B"},{"name":"丽园支行","address":"上海市丽园路1015号","tel":"63041570","opentime":"9：00--18：00（1－7）","lat":"31.20607530","lng":"121.47230030","msg":"","branchno":"121576","type":"B"},{"name":"联洋支行","address":"上海市芳甸路300号","tel":"61637188","opentime":"9：00--18：00（1－7）","lat":"31.22673500","lng":"121.55758500","msg":"","branchno":"121556","type":"B"},{"name":"民生支行","address":"上海市民生路600号","tel":"58520355-168、128","opentime":"9：00--18：00（1－7）","lat":"31.23876040","lng":"121.54060800","msg":"","branchno":"121570","type":"B"},{"name":"闵行支行","address":"上海市莘松路365号","tel":"54955553、54958899-105","opentime":"8：30--17：00（1-7）","lat":"31.10531460","lng":"121.37212970","msg":"","branchno":"121526","type":"B"},{"name":"南西支行","address":"上海市南京西路100号","tel":"63750060、63583356－112","opentime":"9：00--18：00（1－7）","lat":"31.23427430","lng":"121.47276230","msg":"","branchno":"121515","type":"B"},{"name":"浦东大道支行","address":"上海市浦东新区浦东大道535号","tel":"61601611、61601600*129","opentime":"9：00--18：00（1－7）","lat":"31.24064597","lng":"121.52019382","msg":"","branchno":"121559","type":"B"},{"name":"人民广场支行","address":"上海市南京西路456号","tel":"53751110","opentime":"9: 00--18：00（1－7）","lat":"31.23111462","lng":"121.46744013","msg":"","branchno":"121536","type":"B"},{"name":"世纪大道支行","address":"上海市世纪大道1589号","tel":"58203900-107","opentime":"9：00--18：00（1－7）","lat":"31.22464100","lng":"121.53518100","msg":"","branchno":"121552","type":"B"},{"name":"四平支行","address":"上海市四平路1396号","tel":"33628088—8036、8037","opentime":"9：00--18：00（1－7）","lat":"31.28165900","lng":"121.50684200","msg":"","branchno":"121541","type":"B"},{"name":"松江支行","address":"上海市松江区人民北路92-98号","tel":"57826760-101","opentime":"8：30－17：00（1－5），8：30-16：30（双休日）","lat":"31.01264919","lng":"121.22709274","msg":"","branchno":"121572","type":"B"},{"name":"泰兴支行","address":"上海市新闸路847号","tel":"62186857","opentime":"9：00—18：00（1－7）","lat":"31.23437650","lng":"121.45941290","msg":"","branchno":"121517","type":"B"},{"name":"天目支行","address":"上海市天目东路258号","tel":"51270782","opentime":"9：00--18：00（1－7）","lat":"31.24910180","lng":"121.47434460","msg":"","branchno":"121580","type":"B"},{"name":"天山支行","address":"上海市天山路762号","tel":"62335123","opentime":"9：00--18：00（1－7）","lat":"31.21171871","lng":"121.40122175","msg":"","branchno":"121549","type":"B"},{"name":"天钥桥支行","address":"上海市天钥桥路86号","tel":"54250079","opentime":"9：00--18：00（1－7）","lat":"31.19373300","lng":"121.44090600","msg":"","branchno":"121596","type":"B"},{"name":"田林支行","address":"上海市徐汇区田林路 140 号","tel":"60839500*128、60823262","opentime":"9：00--18：00（1－7）","lat":"31.17028600","lng":"121.41235700","msg":"","branchno":"121557","type":"B"},{"name":"外高桥保税区支行","address":"上海市外高桥保税区富特西一路333号","tel":"58664042、58663843","opentime":"9：00--16：30（1－5）","lat":"31.33911630","lng":"121.59277500","msg":"","branchno":"121585","type":"B"},{"name":"外滩支行","address":"上海市中山东一路16号","tel":"63523900-2003、2004、2009、2010、63529892、63529894","opentime":"9：00--18：00（1－7）","lat":"31.23349190","lng":"121.49189160","msg":"","branchno":"121500","type":"B"},{"name":"闻喜支行","address":"上海市闻喜路975号","tel":"56412211-119、111","opentime":"9：00--18：00（1－7）","lat":"31.30783240","lng":"121.44721800","msg":"","branchno":"121547","type":"B"},{"name":"五角场支行","address":"上海市黄兴路2000号","tel":"55057179","opentime":"9：00--18：00（1－7）","lat":"31.29425600","lng":"121.51876400","msg":"","branchno":"121543","type":"B"},{"name":"新客站支行","address":"上海市天目西路455号","tel":"32537006","opentime":"9：00--18：00（1－7）","lat":"31.24715080","lng":"121.45246440","msg":"","branchno":"121516","type":"B"},{"name":"新外滩支行","address":"上海市东大名路908号","tel":"65950884","opentime":"9：00--18：00（1－5）","lat":"31.25049910","lng":"121.50494420","msg":"","branchno":"121531","type":"B"},{"name":"徐家汇支行","address":"上海市漕溪北路18号","tel":"64273891-122、64273892","opentime":"9：00--18：00（1－7）","lat":"31.19321930","lng":"121.43824800","msg":"","branchno":"121528","type":"B"},{"name":"延东支行","address":"上海市延安东路700号","tel":"53850050    53850055-106","opentime":"9：00--18：00（1－7）","lat":"31.22949100","lng":"121.48036920","msg":"","branchno":"121553","type":"B"},{"name":"延西支行","address":"上海市法华镇路555号","tel":"62829455、62827890－111","opentime":"9：00--18：00（1－7）","lat":"31.20553950","lng":"121.42423800","msg":"","branchno":"121535","type":"B"},{"name":"宜山支行","address":"上海市徐汇区虹桥路 355 号","tel":"64071212*111   34141662","opentime":"9：00—18：00（1-7）","lat":"31.23070800","lng":"121.47291600","msg":"","branchno":"121562","type":"B"},{"name":"豫园支行","address":"上海市河南南路378号","tel":"63340658","opentime":"9：00--18：00（1－7）","lat":"31.22372300","lng":"121.48858200","msg":"","branchno":"121533","type":"B"},{"name":"源深支行","address":"上海市羽山路102——108号","tel":"50939995-101","opentime":"9：00--18：00（1－7）","lat":"31.22977560","lng":"121.53810700","msg":"","branchno":"121532","type":"B"},{"name":"张江支行","address":"上海市科苑路88号","tel":"50806828-110","opentime":"9：00--17：30（1－5）","lat":"31.21159580","lng":"121.58690300","msg":"","branchno":"121538","type":"B"},{"name":"张杨支行","address":"上海市张杨路810号","tel":"58357878-116、115","opentime":"9：00--18：00（1－7）","lat":"31.22857100","lng":"121.52152200","msg":"","branchno":"121510","type":"B"},{"name":"中山支行","address":"上海市中山南路1867号","tel":"63084869、63081568－211","opentime":"9：00--18：00（1－7）","lat":"31.20228538","lng":"121.49177313","msg":"","branchno":"121575","type":"B"},{"name":"中远两湾城支行","address":"上海市中潭路91弄3号","tel":"52956872、52927711－113","opentime":"9：00--18：00（1－7）","lat":"31.25356084","lng":"121.44163728","msg":"","branchno":"121537","type":"B"}]}