<?xml version="1.0"?>
<huts><hut restaurant_name="" address="China Town Bldg,7- Faisal Road, Civil Lines" city="Faisalabad" area="Civil Lines" lat="31.430534" lng="73.080879" DineIn="1" Delivery="1" TakeAway="1"/><hut restaurant_name="" address="240-B, Peoples Colony No.1" city="Faisalabad" area="Peoples Colony" lat="31.408823" lng="73.108948" DineIn="0" Delivery="1" TakeAway="1"/><hut restaurant_name="" address="384-A, Main Market, Model Town" city="Gujranwala " area="Model Town" lat="32.174969" lng="74.178162" DineIn="1" Delivery="1" TakeAway="1"/><hut restaurant_name="" address="Plot # 45, Hotel Indus, Thandi Sarak" city="Hyderabad" area="Thandi Sarak" lat="25.380207" lng="68.337196" DineIn="1" Delivery="1" TakeAway="1"/><hut restaurant_name="" address="13-1, Sector F-7, Markaz,Jinnah Super Market" city="Islamabad" area="F-7" lat="33.721985" lng="73.058861" DineIn="1" Delivery="1" TakeAway="1"/><hut restaurant_name="" address="1-K, Plaza,F-10 Markaz" city="Islamabad" area="F-10" lat="33.694317" lng="73.014427" DineIn="1" Delivery="1" TakeAway="1"/><hut restaurant_name="Mai Kolachi/Boat Basin" address="24.827329,67.023997" city="Karachi" area="Clifton/DHA" lat="24.827330" lng="67.023994" DineIn="1" Delivery="1" TakeAway="1"/><hut restaurant_name="Zamzama Commercial" address="24.817894,67.03971" city="Karachi" area="Clifton/DHA" lat="24.817894" lng="67.039711" DineIn="1" Delivery="1" TakeAway="1"/><hut restaurant_name="Nursery, Main Shahra e Faisal" address="24.860459,67.065071" city="Karachi" area="PECHS/MACHS/Tariq Rd/SMR" lat="24.860458" lng="67.065071" DineIn="0" Delivery="1" TakeAway="1"/><hut restaurant_name="Atrium Mall" address="24.856056,67.029792" city="Karachi" area="I I Chundrigarh/City-Station/Zaibunissa street" lat="24.856056" lng="67.029793" DineIn="1" Delivery="1" TakeAway="1"/><hut restaurant_name="Old I I Chundrigarh" address="24.849964,67.003779" city="Karachi" area="I I Chundrigarh/City-Station/Zaibunissa street" lat="24.849964" lng="67.003777" DineIn="1" Delivery="1" TakeAway="1"/><hut restaurant_name="Cantt Station" address="24.84329,67.039793" city="Karachi" area="I I Chundrigarh/City-Station/Zaibunissa street" lat="24.843290" lng="67.039795" DineIn="0" Delivery="1" TakeAway="1"/><hut restaurant_name="Shaheed e Millat, Adjacent Naheed Supermarket" address="24.878076,67.06663" city="Karachi" area="PECHS/MACHS/Tariq Rd/SMR" lat="24.878077" lng="67.066628" DineIn="1" Delivery="1" TakeAway="1"/><hut restaurant_name="Mohd. Ali Society Main Commercial Street" address="24.875573,67.087625 " city="Karachi" area="PECHS/MACHS/Tariq Rd/SMR" lat="24.875572" lng="67.087624" DineIn="1" Delivery="1" TakeAway="1"/><hut restaurant_name="Main Rashid Minhas Road, Opp Toyota Eastern Motors" address="24.907634,67.109515" city="Karachi" area="Gulshan-e-Iqbal/Rashid-Minhas" lat="24.907635" lng="67.109512" DineIn="1" Delivery="1" TakeAway="1"/><hut restaurant_name="Main University Road, Opp Expo Centre" address="24.904041,67.077202" city="Karachi" area="Gulshan-e-Iqbal/Rashid-Minhas" lat="24.904041" lng="67.077202" DineIn="1" Delivery="1" TakeAway="1"/><hut restaurant_name="Five Star Chowrangi" address="24.941651,67.045797" city="Karachi" area="North Nazimabad/F.B. Area" lat="24.941650" lng="67.045799" DineIn="1" Delivery="1" TakeAway="1"/><hut restaurant_name="Shaan/Chamra Chowrangi" address="24.838453,67.121678" city="Karachi" area="Korangi Industrial Area" lat="24.838453" lng="67.121681" DineIn="0" Delivery="1" TakeAway="1"/><hut restaurant_name="Yousaf Plaza" address="24.939238,67.079573" city="Karachi" area="North Nazimabad/F.B. Area" lat="24.939238" lng="67.079575" DineIn="1" Delivery="1" TakeAway="1"/><hut restaurant_name="Dilkusha Mall, Tariq Road" address="24.878611,67.064297" city="Karachi" area="PECHS/MACHS/Tariq Rd/SMR" lat="24.878611" lng="67.064301" DineIn="1" Delivery="1" TakeAway="1"/><hut restaurant_name="Millenium Mall, Dalmia / Rashid Minhas Road" address="24.901666,67.115" city="Karachi" area="Gulshan-e-Iqbal/Rashid-Minhas" lat="24.901667" lng="67.114998" DineIn="1" Delivery="1" TakeAway="1"/><hut restaurant_name="" address="89/B-1, Gulberg-III,M.M. Alam Road, Aligarh Chowrangi" city="Lahore" area="Gulberg" lat="31.519024" lng="74.342102" DineIn="1" Delivery="1" TakeAway="1"/><hut restaurant_name="" address="Salaar Centre, Baber Block,Garden Town" city="Lahore" area="Garden Town" lat="31.545050" lng="74.340683" DineIn="1" Delivery="1" TakeAway="1"/><hut restaurant_name="" address="73- Mall PlazaThe Mall" city="Lahore" area="The Mall" lat="31.545050" lng="74.340683" DineIn="1" Delivery="1" TakeAway="1"/><hut restaurant_name="" address="122-Y, Lahore Cantonment SoceityDefence" city="Lahore" area="Defence" lat="31.545050" lng="74.340683" DineIn="1" Delivery="1" TakeAway="1"/><hut restaurant_name="" address="Plot #15, Block N,Johar Town" city="Lahore" area="Johar Town" lat="31.462301" lng="74.275551" DineIn="1" Delivery="1" TakeAway="1"/><hut restaurant_name="" address="Block 6, Near Akbari StoreAllama Iqbal Town" city="Lahore" area="Allama Iqbal Town" lat="31.515081" lng="74.296471" DineIn="1" Delivery="1" TakeAway="1"/><hut restaurant_name="" address="Railway Station" city="Lahore" area="Railway Station" lat="31.577019" lng="74.338890" DineIn="0" Delivery="1" TakeAway="1"/><hut restaurant_name="" address="PSO Petrolium (Sunshine),Abid Majeed Rd., Cantt." city="Lahore" area="Cantt" lat="31.522408" lng="74.379601" DineIn="0" Delivery="1" TakeAway="1"/><hut restaurant_name="" address="Plot No. 34, Block C,Faisal Town" city="Lahore" area="Faisal Town" lat="31.469593" lng="74.307755" DineIn="1" Delivery="1" TakeAway="1"/><hut restaurant_name="" address="Main Road, Gulgasht Colony" city="Multan" area="Gulgasht Colony" lat="30.217039" lng="71.472496" DineIn="1" Delivery="1" TakeAway="1"/><hut restaurant_name="" address="Captain Karnal Sher Khan, StadiumShamiRoad, Cantt." city="Peshawar " area="Cantt" lat="34.015266" lng="71.552025" DineIn="1" Delivery="1" TakeAway="1"/><hut restaurant_name="" address="Rizwan Arcade,Adamjee Road, Saddar" city="Rawalpindi" area="Saddar" lat="33.594906" lng="73.055542" DineIn="1" Delivery="1" TakeAway="1"/><hut restaurant_name="" address="Block 82-A, School Road,Near Arshi Masjid, Satellite Town" city="Rawalpindi" area="Satellite Town" lat="33.638664" lng="73.078194" DineIn="0" Delivery="1" TakeAway="1"/><hut restaurant_name="" address="15 Division Welfare Complex,Eastern Block, 5-Mall, Cantt." city="Sialkot" area="Cantt" lat="32.513309" lng="74.574821" DineIn="1" Delivery="1" TakeAway="1"/><hut restaurant_name="Bilawal Chowrangi" address="24.815877,67.021604" city="Karachi" area="Clifton/DHA" lat="24.783661" lng="67.070412" DineIn="1" Delivery="1" TakeAway="1"/><hut restaurant_name="Seaview" address="24.784958,67.04844" city="Karachi" area="Clifton/DHA" lat="24.783661" lng="67.070412" DineIn="0" Delivery="1" TakeAway="1"/><hut restaurant_name="Main Kh. Shahbaz" address="24.809153,67.062444" city="Karachi" area="Clifton/DHA" lat="24.783661" lng="67.070412" DineIn="0" Delivery="1" TakeAway="1"/><hut restaurant_name="Main Kh. Ittehad" address="24.830407,67.073984" city="Karachi" area="Clifton/DHA" lat="24.783661" lng="67.070412" DineIn="1" Delivery="1" TakeAway="1"/><hut restaurant_name="New I I Chundrigarh / City Station" address="Pakistan RailwaysI.I Chundrigar Road" city="Karachi" area="I I Chundrigarh/City-Station/Zaibunissa street" lat="24.893379" lng="67.028061" DineIn="1" Delivery="1" TakeAway="1"/><hut restaurant_name="Gulshan e Iqbal, Near Disco Bakery" address="24.930142,67.099744" city="Karachi" area="Gulshan-e-Iqbal/Rashid-Minhas" lat="24.915581" lng="67.093773" DineIn="1" Delivery="1" TakeAway="1"/><hut restaurant_name="Board Office" address="24.925847,67.031742" city="Karachi" area="North Nazimabad/F.B. Area" lat="24.881035" lng="67.072510" DineIn="1" Delivery="1" TakeAway="1"/><hut restaurant_name="" address="4-E-1, Hali RoadGulberg 3" city="Lahore" area="Gulberg" lat="31.545050" lng="74.340683" DineIn="0" Delivery="1" TakeAway="1"/></huts>
